season: 1959
rounds:
  - round: 1
    url: https://en.wikipedia.org/wiki/1959_Monaco_Grand_Prix
    name: Monaco Grand Prix
    raceCode3: MON
    sessions:
      - name: Race
        date: '1959-05-10'
    circuit:
      circuitId: monaco
      url: https://en.wikipedia.org/wiki/Circuit_de_Monaco
      name: Circuit de Monaco
      location:
        locality: Monte-Carlo
        country: Monaco
        latitude: 43.7347
        longitude: 7.42056
        flag: ðŸ‡²ðŸ‡¨
        countryCode3: MCO
  - round: 2
    url: https://en.wikipedia.org/wiki/1959_Indianapolis_500
    name: Indianapolis 500
    raceCode3: USA
    sessions:
      - name: Race
        date: '1959-05-30'
    circuit:
      circuitId: indianapolis
      url: https://en.wikipedia.org/wiki/Indianapolis_Motor_Speedway
      name: Indianapolis Motor Speedway
      location:
        locality: Indianapolis
        country: USA
        latitude: 39.795
        longitude: -86.2347
        flag: ðŸ‡ºðŸ‡¸
        countryCode3: USA
  - round: 3
    url: https://en.wikipedia.org/wiki/1959_Dutch_Grand_Prix
    name: Dutch Grand Prix
    raceCode3: NED
    sessions:
      - name: Race
        date: '1959-05-31'
    circuit:
      circuitId: zandvoort
      url: https://en.wikipedia.org/wiki/Circuit_Zandvoort
      name: Circuit Park Zandvoort
      location:
        locality: Zandvoort
        country: Netherlands
        latitude: 52.3888
        longitude: 4.54092
        flag: ðŸ‡³ðŸ‡±
        countryCode3: NLD
  - round: 4
    url: https://en.wikipedia.org/wiki/1959_French_Grand_Prix
    name: French Grand Prix
    raceCode3: FRA
    sessions:
      - name: Race
        date: '1959-07-05'
    circuit:
      circuitId: reims
      url: https://en.wikipedia.org/wiki/Reims-Gueux
      name: Reims-Gueux
      location:
        locality: Reims
        country: France
        latitude: 49.2542
        longitude: 3.93083
        flag: ðŸ‡«ðŸ‡·
        countryCode3: FRA
  - round: 5
    url: https://en.wikipedia.org/wiki/1959_British_Grand_Prix
    name: British Grand Prix
    raceCode3: GBR
    sessions:
      - name: Race
        date: '1959-07-18'
    circuit:
      circuitId: aintree
      url: https://en.wikipedia.org/wiki/Aintree_Motor_Racing_Circuit
      name: Aintree
      location:
        locality: Liverpool
        country: UK
        latitude: 53.4769
        longitude: -2.94056
        flag: ðŸ‡¬ðŸ‡§
        countryCode3: GBR
  - round: 6
    url: https://en.wikipedia.org/wiki/1959_German_Grand_Prix
    name: German Grand Prix
    raceCode3: DEU
    sessions:
      - name: Race
        date: '1959-08-02'
    circuit:
      circuitId: avus
      url: https://en.wikipedia.org/wiki/AVUS
      name: AVUS
      location:
        locality: Berlin
        country: Germany
        latitude: 52.4806
        longitude: 13.2514
        flag: ðŸ‡©ðŸ‡ª
        countryCode3: DEU
  - round: 7
    url: https://en.wikipedia.org/wiki/1959_Portuguese_Grand_Prix
    name: Portuguese Grand Prix
    raceCode3: POR
    sessions:
      - name: Race
        date: '1959-08-23'
    circuit:
      circuitId: monsanto
      url: https://en.wikipedia.org/wiki/Circuito_de_Monsanto
      name: Monsanto Park Circuit
      location:
        locality: Lisbon
        country: Portugal
        latitude: 38.7197
        longitude: -9.20306
        flag: ðŸ‡µðŸ‡¹
        countryCode3: POR
  - round: 8
    url: https://en.wikipedia.org/wiki/1959_Italian_Grand_Prix
    name: Italian Grand Prix
    raceCode3: ITA
    sessions:
      - name: Race
        date: '1959-09-13'
    circuit:
      circuitId: monza
      url: https://en.wikipedia.org/wiki/Monza_Circuit
      name: Autodromo Nazionale di Monza
      location:
        locality: Monza
        country: Italy
        latitude: 45.6156
        longitude: 9.28111
        flag: ðŸ‡®ðŸ‡¹
        countryCode3: ITA
  - round: 9
    url: https://en.wikipedia.org/wiki/1959_United_States_Grand_Prix
    name: United States Grand Prix
    raceCode3: USA
    sessions:
      - name: Race
        date: '1959-12-12'
    circuit:
      circuitId: sebring
      url: https://en.wikipedia.org/wiki/Sebring_International_Raceway
      name: Sebring International Raceway
      location:
        locality: Florida
        country: USA
        latitude: 27.4547
        longitude: -81.3483
        flag: ðŸ‡ºðŸ‡¸
        countryCode3: USA
