season: 1958
rounds:
  - round: 1
    url: https://en.wikipedia.org/wiki/1958_Argentine_Grand_Prix
    name: Argentine Grand Prix
    raceCode3: ARG
    sessions:
      - name: Race
        date: '1958-01-19'
    circuit:
      circuitId: galvez
      url: https://en.wikipedia.org/wiki/Aut칩dromo_Oscar_y_Juan_G치lvez
      name: Aut칩dromo Juan y Oscar G치lvez
      location:
        locality: Buenos Aires
        country: Argentina
        latitude: -34.6943
        longitude: -58.4593
        flag: 游뷣릖
        countryCode3: ARG
  - round: 2
    url: https://en.wikipedia.org/wiki/1958_Monaco_Grand_Prix
    name: Monaco Grand Prix
    raceCode3: MON
    sessions:
      - name: Race
        date: '1958-05-18'
    circuit:
      circuitId: monaco
      url: https://en.wikipedia.org/wiki/Circuit_de_Monaco
      name: Circuit de Monaco
      location:
        locality: Monte-Carlo
        country: Monaco
        latitude: 43.7347
        longitude: 7.42056
        flag: 游쓇릖
        countryCode3: MCO
  - round: 3
    url: https://en.wikipedia.org/wiki/1958_Dutch_Grand_Prix
    name: Dutch Grand Prix
    raceCode3: NED
    sessions:
      - name: Race
        date: '1958-05-26'
    circuit:
      circuitId: zandvoort
      url: https://en.wikipedia.org/wiki/Circuit_Zandvoort
      name: Circuit Park Zandvoort
      location:
        locality: Zandvoort
        country: Netherlands
        latitude: 52.3888
        longitude: 4.54092
        flag: 游游
        countryCode3: NLD
  - round: 4
    url: https://en.wikipedia.org/wiki/1958_Indianapolis_500
    name: Indianapolis 500
    raceCode3: USA
    sessions:
      - name: Race
        date: '1958-05-30'
    circuit:
      circuitId: indianapolis
      url: https://en.wikipedia.org/wiki/Indianapolis_Motor_Speedway
      name: Indianapolis Motor Speedway
      location:
        locality: Indianapolis
        country: USA
        latitude: 39.795
        longitude: -86.2347
        flag: 游쥟릖
        countryCode3: USA
  - round: 5
    url: https://en.wikipedia.org/wiki/1958_Belgian_Grand_Prix
    name: Belgian Grand Prix
    raceCode3: BEL
    sessions:
      - name: Race
        date: '1958-06-15'
    circuit:
      circuitId: spa
      url: https://en.wikipedia.org/wiki/Circuit_de_Spa-Francorchamps
      name: Circuit de Spa-Francorchamps
      location:
        locality: Spa
        country: Belgium
        latitude: 50.4372
        longitude: 5.97139
        flag: 游游
        countryCode3: BEL
  - round: 6
    url: https://en.wikipedia.org/wiki/1958_French_Grand_Prix
    name: French Grand Prix
    raceCode3: FRA
    sessions:
      - name: Race
        date: '1958-07-06'
    circuit:
      circuitId: reims
      url: https://en.wikipedia.org/wiki/Reims-Gueux
      name: Reims-Gueux
      location:
        locality: Reims
        country: France
        latitude: 49.2542
        longitude: 3.93083
        flag: 游游
        countryCode3: FRA
  - round: 7
    url: https://en.wikipedia.org/wiki/1958_British_Grand_Prix
    name: British Grand Prix
    raceCode3: GBR
    sessions:
      - name: Race
        date: '1958-07-19'
    circuit:
      circuitId: silverstone
      url: https://en.wikipedia.org/wiki/Silverstone_Circuit
      name: Silverstone Circuit
      location:
        locality: Silverstone
        country: UK
        latitude: 52.0786
        longitude: -1.01694
        flag: 游섫릖
        countryCode3: GBR
  - round: 8
    url: https://en.wikipedia.org/wiki/1958_German_Grand_Prix
    name: German Grand Prix
    raceCode3: DEU
    sessions:
      - name: Race
        date: '1958-08-03'
    circuit:
      circuitId: nurburgring
      url: https://en.wikipedia.org/wiki/N%C3%BCrburgring
      name: N칲rburgring
      location:
        locality: N칲rburg
        country: Germany
        latitude: 50.3356
        longitude: 6.9475
        flag: 游뾇릖
        countryCode3: DEU
  - round: 9
    url: https://en.wikipedia.org/wiki/1958_Portuguese_Grand_Prix
    name: Portuguese Grand Prix
    raceCode3: POR
    sessions:
      - name: Race
        date: '1958-08-24'
    circuit:
      circuitId: boavista
      url: https://en.wikipedia.org/wiki/Circuito_da_Boavista
      name: Circuito da Boavista
      location:
        locality: Oporto
        country: Portugal
        latitude: 41.1705
        longitude: -8.67325
        flag: 游왫릖
        countryCode3: POR
  - round: 10
    url: https://en.wikipedia.org/wiki/1958_Italian_Grand_Prix
    name: Italian Grand Prix
    raceCode3: ITA
    sessions:
      - name: Race
        date: '1958-09-07'
    circuit:
      circuitId: monza
      url: https://en.wikipedia.org/wiki/Monza_Circuit
      name: Autodromo Nazionale di Monza
      location:
        locality: Monza
        country: Italy
        latitude: 45.6156
        longitude: 9.28111
        flag: 游쉻릖
        countryCode3: ITA
  - round: 11
    url: https://en.wikipedia.org/wiki/1958_Moroccan_Grand_Prix
    name: Moroccan Grand Prix
    raceCode3: MAR
    sessions:
      - name: Race
        date: '1958-10-19'
    circuit:
      circuitId: ain-diab
      url: https://en.wikipedia.org/wiki/Ain-Diab_Circuit
      name: Ain Diab
      location:
        locality: Casablanca
        country: Morocco
        latitude: 33.5786
        longitude: -7.6875
        flag: 游쓇릖
        countryCode3: MAR
