season: 1954
rounds:
  - round: 1
    url: https://en.wikipedia.org/wiki/1954_Argentine_Grand_Prix
    name: Argentine Grand Prix
    raceCode3: ARG
    sessions:
      - name: Race
        date: '1954-01-17'
    circuit:
      circuitId: galvez
      url: https://en.wikipedia.org/wiki/Aut칩dromo_Oscar_y_Juan_G치lvez
      name: Aut칩dromo Juan y Oscar G치lvez
      location:
        locality: Buenos Aires
        country: Argentina
        latitude: -34.6943
        longitude: -58.4593
        flag: 游뷣릖
        countryCode3: ARG
  - round: 2
    url: https://en.wikipedia.org/wiki/1954_Indianapolis_500
    name: Indianapolis 500
    raceCode3: USA
    sessions:
      - name: Race
        date: '1954-05-31'
    circuit:
      circuitId: indianapolis
      url: https://en.wikipedia.org/wiki/Indianapolis_Motor_Speedway
      name: Indianapolis Motor Speedway
      location:
        locality: Indianapolis
        country: USA
        latitude: 39.795
        longitude: -86.2347
        flag: 游쥟릖
        countryCode3: USA
  - round: 3
    url: https://en.wikipedia.org/wiki/1954_Belgian_Grand_Prix
    name: Belgian Grand Prix
    raceCode3: BEL
    sessions:
      - name: Race
        date: '1954-06-20'
    circuit:
      circuitId: spa
      url: https://en.wikipedia.org/wiki/Circuit_de_Spa-Francorchamps
      name: Circuit de Spa-Francorchamps
      location:
        locality: Spa
        country: Belgium
        latitude: 50.4372
        longitude: 5.97139
        flag: 游游
        countryCode3: BEL
  - round: 4
    url: https://en.wikipedia.org/wiki/1954_French_Grand_Prix
    name: French Grand Prix
    raceCode3: FRA
    sessions:
      - name: Race
        date: '1954-07-04'
    circuit:
      circuitId: reims
      url: https://en.wikipedia.org/wiki/Reims-Gueux
      name: Reims-Gueux
      location:
        locality: Reims
        country: France
        latitude: 49.2542
        longitude: 3.93083
        flag: 游游
        countryCode3: FRA
  - round: 5
    url: https://en.wikipedia.org/wiki/1954_British_Grand_Prix
    name: British Grand Prix
    raceCode3: GBR
    sessions:
      - name: Race
        date: '1954-07-17'
    circuit:
      circuitId: silverstone
      url: https://en.wikipedia.org/wiki/Silverstone_Circuit
      name: Silverstone Circuit
      location:
        locality: Silverstone
        country: UK
        latitude: 52.0786
        longitude: -1.01694
        flag: 游섫릖
        countryCode3: GBR
  - round: 6
    url: https://en.wikipedia.org/wiki/1954_German_Grand_Prix
    name: German Grand Prix
    raceCode3: DEU
    sessions:
      - name: Race
        date: '1954-08-01'
    circuit:
      circuitId: nurburgring
      url: https://en.wikipedia.org/wiki/N%C3%BCrburgring
      name: N칲rburgring
      location:
        locality: N칲rburg
        country: Germany
        latitude: 50.3356
        longitude: 6.9475
        flag: 游뾇릖
        countryCode3: DEU
  - round: 7
    url: https://en.wikipedia.org/wiki/1954_Swiss_Grand_Prix
    name: Swiss Grand Prix
    raceCode3: CHE
    sessions:
      - name: Race
        date: '1954-08-22'
    circuit:
      circuitId: bremgarten
      url: https://en.wikipedia.org/wiki/Circuit_Bremgarten
      name: Circuit Bremgarten
      location:
        locality: Bern
        country: Switzerland
        latitude: 46.9589
        longitude: 7.40194
        flag: 游뻟릖
        countryCode3: CHE
  - round: 8
    url: https://en.wikipedia.org/wiki/1954_Italian_Grand_Prix
    name: Italian Grand Prix
    raceCode3: ITA
    sessions:
      - name: Race
        date: '1954-09-05'
    circuit:
      circuitId: monza
      url: https://en.wikipedia.org/wiki/Monza_Circuit
      name: Autodromo Nazionale di Monza
      location:
        locality: Monza
        country: Italy
        latitude: 45.6156
        longitude: 9.28111
        flag: 游쉻릖
        countryCode3: ITA
  - round: 9
    url: https://en.wikipedia.org/wiki/1954_Spanish_Grand_Prix
    name: Spanish Grand Prix
    raceCode3: ESP
    sessions:
      - name: Race
        date: '1954-10-24'
    circuit:
      circuitId: pedralbes
      url: https://en.wikipedia.org/wiki/Pedralbes_Circuit
      name: Circuit de Pedralbes
      location:
        locality: Barcelona
        country: Spain
        latitude: 41.3903
        longitude: 2.11667
        flag: 游쀯릖
        countryCode3: ESP
