season: 1950
rounds:
  - round: 1
    url: https://en.wikipedia.org/wiki/1950_British_Grand_Prix
    name: British Grand Prix
    raceCode3: GBR
    sessions:
      - name: Race
        date: '1950-05-13'
    circuit:
      circuitId: silverstone
      url: https://en.wikipedia.org/wiki/Silverstone_Circuit
      name: Silverstone Circuit
      location:
        locality: Silverstone
        country: UK
        latitude: 52.0786
        longitude: -1.01694
        flag: ðŸ‡¬ðŸ‡§
        countryCode3: GBR
  - round: 2
    url: https://en.wikipedia.org/wiki/1950_Monaco_Grand_Prix
    name: Monaco Grand Prix
    raceCode3: MON
    sessions:
      - name: Race
        date: '1950-05-21'
    circuit:
      circuitId: monaco
      url: https://en.wikipedia.org/wiki/Circuit_de_Monaco
      name: Circuit de Monaco
      location:
        locality: Monte-Carlo
        country: Monaco
        latitude: 43.7347
        longitude: 7.42056
        flag: ðŸ‡²ðŸ‡¨
        countryCode3: MCO
  - round: 3
    url: https://en.wikipedia.org/wiki/1950_Indianapolis_500
    name: Indianapolis 500
    raceCode3: USA
    sessions:
      - name: Race
        date: '1950-05-30'
    circuit:
      circuitId: indianapolis
      url: https://en.wikipedia.org/wiki/Indianapolis_Motor_Speedway
      name: Indianapolis Motor Speedway
      location:
        locality: Indianapolis
        country: USA
        latitude: 39.795
        longitude: -86.2347
        flag: ðŸ‡ºðŸ‡¸
        countryCode3: USA
  - round: 4
    url: https://en.wikipedia.org/wiki/1950_Swiss_Grand_Prix
    name: Swiss Grand Prix
    raceCode3: CHE
    sessions:
      - name: Race
        date: '1950-06-04'
    circuit:
      circuitId: bremgarten
      url: https://en.wikipedia.org/wiki/Circuit_Bremgarten
      name: Circuit Bremgarten
      location:
        locality: Bern
        country: Switzerland
        latitude: 46.9589
        longitude: 7.40194
        flag: ðŸ‡¨ðŸ‡­
        countryCode3: CHE
  - round: 5
    url: https://en.wikipedia.org/wiki/1950_Belgian_Grand_Prix
    name: Belgian Grand Prix
    raceCode3: BEL
    sessions:
      - name: Race
        date: '1950-06-18'
    circuit:
      circuitId: spa
      url: https://en.wikipedia.org/wiki/Circuit_de_Spa-Francorchamps
      name: Circuit de Spa-Francorchamps
      location:
        locality: Spa
        country: Belgium
        latitude: 50.4372
        longitude: 5.97139
        flag: ðŸ‡§ðŸ‡ª
        countryCode3: BEL
  - round: 6
    url: https://en.wikipedia.org/wiki/1950_French_Grand_Prix
    name: French Grand Prix
    raceCode3: FRA
    sessions:
      - name: Race
        date: '1950-07-02'
    circuit:
      circuitId: reims
      url: https://en.wikipedia.org/wiki/Reims-Gueux
      name: Reims-Gueux
      location:
        locality: Reims
        country: France
        latitude: 49.2542
        longitude: 3.93083
        flag: ðŸ‡«ðŸ‡·
        countryCode3: FRA
  - round: 7
    url: https://en.wikipedia.org/wiki/1950_Italian_Grand_Prix
    name: Italian Grand Prix
    raceCode3: ITA
    sessions:
      - name: Race
        date: '1950-09-03'
    circuit:
      circuitId: monza
      url: https://en.wikipedia.org/wiki/Monza_Circuit
      name: Autodromo Nazionale di Monza
      location:
        locality: Monza
        country: Italy
        latitude: 45.6156
        longitude: 9.28111
        flag: ðŸ‡®ðŸ‡¹
        countryCode3: ITA
